"stop_id","stop_name","stop_desc","stop_lat","stop_lon"
"S_ORTMKT_1","Park Square (Theater Dr)","In front of Dusit Thani","14.548948","121.025737"
"S_ORTMKT_2","Robinson's Galleria","Underneath the overpass beside EDSA Shrine","14.592020","121.058476"
"S_ALAMKT_1","Greenbelt 1 (Legazpi Street)","Near Rita Optical and Andok's","14.553626","121.020953"
"S_ALAMKT_2","Alabang Town Center Bus Terminal","East of Alabang Town Center","14.424089","121.031716"
"S_NEDORT_1","SM North EDSA Bus Terminal","","14.656103","121.029239"
"S_NEDORT_2","SM Megamall Bus Terminal","","14.584806","121.056179"
"S_NEDMKT_1","Glorietta 5 (North Street)","","14.551507","121.027096"
"S_NEDMKT_2","Trinoma (EDSA)","","14.651404","121.033242"
